{"method":"OnEventNotify","params":"{\"clients\":[\"uavms\",\"uavrpmsweb\"],\"uids\":[\"ljp\",\"test01\",\"tangtang\",\"admin\"],\"ability\":\"event_uav\",\"quids\":[\"ljp\",\"test01\",\"tangtang\",\"admin\"],\"events\":[{\"eventId\":\"83952FEF-A358-C24B-8631-69DD2DB55DB7\",\"srcName\":\"Camera_01\",\"data\":{\"dateTime\":\"2024-12-28T13:31:59.270+08:00\",\"dataProcInterval\":\"8\",\"portNo\":8257,\"recvTime\":\"2024-12-28T13:31:59.288+08:00\",\"dataType\":\"uavGps\",\"ipAddress\":\"\",\"targetAttrs\":{\"deviceIndexCode\":\"8b78dc690ada448ca7b55425e1915b43\",\"recognitionSign\":1,\"channelName\":\"Camera_01\",\"picServerIndexCode\":\"\",\"cameraIndexCode\":\"4b47720096fa453980491a93cf061a1d\",\"cameraType\":\"COMMON\"},\"channelName\":\"Camera_01\",\"eventType\":\"uavGpsCollection\",\"gpsCollection\":[{\"UAVStatus\":{\"BatteryRemaining\":76,\"PitchAngle\":0.5729579925537109,\"HorizontalSpeed\":8.050154685974121,\"Latitude\":30.07011222839355,\"RouteId\":\"\",\"RouteStatus\":255,\"Longitude\":106.7028656005859,\"HorizonalView\":5084,\"SensorSize\":28,\"Focus\":535,\"UavMode\":5,\"RollAngle\":-5.729578018188477,\"RelativeHeight\":119.9901962280273,\"VerticalView\":2993,\"YawAngle\":50.27999877929688,\"VerticalSpeed\":0.02999999932944775},\"GSStatus\":{\"DataRadioRSSI\":0,\"DivisionEW\":\"E\",\"Latitude\":106.7028656005859,\"ImageRSSI\":0,\"GimbalYaw\":5032,\"Longitude\":30.07010650634766,\"GimbalPitchAngle\":-1182},\"targetAttrs\":{\"deviceIndexCode\":\"8b78dc690ada448ca7b55425e1915b43\",\"recognitionSign\":1,\"channelName\":\"Camera_01\",\"picServerIndexCode\":\"\",\"cameraIndexCode\":\"4b47720096fa453980491a93cf061a1d\",\"cameraType\":\"COMMON\"}}],\"channelID\":1,\"sendTime\":\"2024-12-28T13:31:59.296+08:00\"},\"srcParentIndex\":\"8b78dc690ada448ca7b55425e1915b43\",\"eventType\":852225,\"srcIndex\":\"8b78dc690ada448ca7b55425e1915b43\",\"srcType\":\"encodeDevice\",\"timeout\":0,\"happenTime\":\"2024-12-28T13:31:59.270+08:00\",\"status\":0}],\"sendTime\":\"2024-12-28T13:31:59.296+08:00\"}"}
{"method":"OnEventNotify","params":"{\"clients\":[\"uavms\",\"uavrpmsweb\"],\"uids\":[\"ljp\",\"test01\",\"tangtang\",\"admin\"],\"ability\":\"event_uav\",\"quids\":[\"ljp\",\"test01\",\"tangtang\",\"admin\"],\"events\":[{\"eventId\":\"49979B91-AF9F-2A43-89DB-3F111AE78094\",\"srcName\":\"Camera_01\",\"data\":{\"dateTime\":\"2024-12-28T13:34:33.420+08:00\",\"dataProcInterval\":\"7\",\"portNo\":8257,\"recvTime\":\"2024-12-28T13:34:33.431+08:00\",\"dataType\":\"uavGps\",\"ipAddress\":\"\",\"targetAttrs\":{\"deviceIndexCode\":\"8b78dc690ada448ca7b55425e1915b43\",\"recognitionSign\":1,\"channelName\":\"Camera_01\",\"picServerIndexCode\":\"\",\"cameraIndexCode\":\"4b47720096fa453980491a93cf061a1d\",\"cameraType\":\"COMMON\"},\"channelName\":\"Camera_01\",\"eventType\":\"uavGpsCollection\",\"gpsCollection\":[{\"UAVStatus\":{\"BatteryRemaining\":70,\"PitchAngle\":1.718873023986816,\"HorizontalSpeed\":7.873727798461914,\"Latitude\":30.07901954650879,\"RouteId\":\"\",\"RouteStatus\":255,\"Longitude\":106.7099075317383,\"HorizonalView\":5084,\"SensorSize\":28,\"Focus\":535,\"UavMode\":5,\"RollAngle\":-7.448451042175293,\"RelativeHeight\":120.0612869262695,\"VerticalView\":2993,\"YawAngle\":25.31999969482422,\"VerticalSpeed\":-0.1299999952316284},\"GSStatus\":{\"DataRadioRSSI\":0,\"DivisionEW\":\"E\",\"Latitude\":106.7099075317383,\"ImageRSSI\":0,\"GimbalYaw\":2469,\"Longitude\":30.07901954650879,\"GimbalPitchAngle\":-1319},\"targetAttrs\":{\"deviceIndexCode\":\"8b78dc690ada448ca7b55425e1915b43\",\"recognitionSign\":1,\"channelName\":\"Camera_01\",\"picServerIndexCode\":\"\",\"cameraIndexCode\":\"4b47720096fa453980491a93cf061a1d\",\"cameraType\":\"COMMON\"}}],\"channelID\":1,\"sendTime\":\"2024-12-28T13:34:33.438+08:00\"},\"srcParentIndex\":\"8b78dc690ada448ca7b55425e1915b43\",\"eventType\":852225,\"srcIndex\":\"8b78dc690ada448ca7b55425e1915b43\",\"srcType\":\"encodeDevice\",\"timeout\":0,\"happenTime\":\"2024-12-28T13:34:33.420+08:00\",\"status\":0}],\"sendTime\":\"2024-12-28T13:34:33.439+08:00\"}"}
{"method":"OnEventNotify","params":"{\"clients\":[\"uavms\",\"uavrpmsweb\"],\"uids\":[\"ljp\",\"test01\",\"tangtang\",\"admin\"],\"ability\":\"event_uav\",\"quids\":[\"ljp\",\"test01\",\"tangtang\",\"admin\"],\"events\":[{\"eventId\":\"13B2FD5D-A4E5-1244-B0F7-9546BB17D0E3\",\"srcName\":\"Camera_01\",\"data\":{\"dateTime\":\"2024-12-28T13:31:18.618+08:00\",\"dataProcInterval\":\"3\",\"portNo\":8257,\"recvTime\":\"2024-12-28T13:31:18.628+08:00\",\"dataType\":\"uavGps\",\"ipAddress\":\"\",\"targetAttrs\":{\"deviceIndexCode\":\"8b78dc690ada448ca7b55425e1915b43\",\"recognitionSign\":1,\"channelName\":\"Camera_01\",\"picServerIndexCode\":\"\",\"cameraIndexCode\":\"4b47720096fa453980491a93cf061a1d\",\"cameraType\":\"COMMON\"},\"channelName\":\"Camera_01\",\"eventType\":\"uavGpsCollection\",\"gpsCollection\":[{\"UAVStatus\":{\"BatteryRemaining\":78,\"PitchAngle\":0.5729579925537109,\"HorizontalSpeed\":8.006509780883789,\"Latitude\":30.06823348999023,\"RouteId\":\"\",\"RouteStatus\":255,\"Longitude\":106.7005004882812,\"HorizonalView\":5084,\"SensorSize\":28,\"Focus\":535,\"UavMode\":5,\"RollAngle\":-5.156620025634766,\"RelativeHeight\":119.9435348510742,\"VerticalView\":2993,\"YawAngle\":50.22999954223633,\"VerticalSpeed\":0.05000000074505806},\"GSStatus\":{\"DataRadioRSSI\":0,\"DivisionEW\":\"E\",\"Latitude\":106.7004928588867,\"ImageRSSI\":0,\"GimbalYaw\":5001,\"Longitude\":30.06821823120117,\"GimbalPitchAngle\":-1251},\"targetAttrs\":{\"deviceIndexCode\":\"8b78dc690ada448ca7b55425e1915b43\",\"recognitionSign\":1,\"channelName\":\"Camera_01\",\"picServerIndexCode\":\"\",\"cameraIndexCode\":\"4b47720096fa453980491a93cf061a1d\",\"cameraType\":\"COMMON\"}}],\"channelID\":1,\"sendTime\":\"2024-12-28T13:31:18.631+08:00\"},\"srcParentIndex\":\"8b78dc690ada448ca7b55425e1915b43\",\"eventType\":852225,\"srcIndex\":\"8b78dc690ada448ca7b55425e1915b43\",\"srcType\":\"encodeDevice\",\"timeout\":0,\"happenTime\":\"2024-12-28T13:31:18.618+08:00\",\"status\":0}],\"sendTime\":\"2024-12-28T13:31:18.632+08:00\"}"}
{"method":"OnEventNotify","params":"{\"clients\":[\"uavms\",\"uavrpmsweb\"],\"uids\":[\"ljp\",\"test01\",\"tangtang\",\"admin\"],\"ability\":\"event_uav\",\"quids\":[\"ljp\",\"test01\",\"tangtang\",\"admin\"],\"events\":[{\"eventId\":\"01F9E845-0817-3A41-A88E-B8034AF7B5E6\",\"srcName\":\"Camera_01\",\"data\":{\"dateTime\":\"2024-12-28T13:35:32.352+08:00\",\"dataProcInterval\":\"5\",\"portNo\":8257,\"recvTime\":\"2024-12-28T13:35:32.373+08:00\",\"dataType\":\"uavGps\",\"ipAddress\":\"\",\"targetAttrs\":{\"deviceIndexCode\":\"8b78dc690ada448ca7b55425e1915b43\",\"recognitionSign\":1,\"channelName\":\"Camera_01\",\"picServerIndexCode\":\"\",\"cameraIndexCode\":\"4b47720096fa453980491a93cf061a1d\",\"cameraType\":\"COMMON\"},\"channelName\":\"Camera_01\",\"eventType\":\"uavGpsCollection\",\"gpsCollection\":[{\"UAVStatus\":{\"BatteryRemaining\":67,\"PitchAngle\":1.718873023986816,\"HorizontalSpeed\":7.998799800872803,\"Latitude\":30.08292579650879,\"RouteId\":\"\",\"RouteStatus\":255,\"Longitude\":106.7112426757812,\"HorizonalView\":5084,\"SensorSize\":28,\"Focus\":535,\"UavMode\":5,\"RollAngle\":-5.156620025634766,\"RelativeHeight\":119.9964599609375,\"VerticalView\":2993,\"YawAngle\":5.239999771118164,\"VerticalSpeed\":-0.07999999821186066},\"GSStatus\":{\"DataRadioRSSI\":0,\"DivisionEW\":\"E\",\"Latitude\":106.7112426757812,\"ImageRSSI\":0,\"GimbalYaw\":536,\"Longitude\":30.08292579650879,\"GimbalPitchAngle\":-1195},\"targetAttrs\":{\"deviceIndexCode\":\"8b78dc690ada448ca7b55425e1915b43\",\"recognitionSign\":1,\"channelName\":\"Camera_01\",\"picServerIndexCode\":\"\",\"cameraIndexCode\":\"4b47720096fa453980491a93cf061a1d\",\"cameraType\":\"COMMON\"}}],\"channelID\":1,\"sendTime\":\"2024-12-28T13:35:32.378+08:00\"},\"srcParentIndex\":\"8b78dc690ada448ca7b55425e1915b43\",\"eventType\":852225,\"srcIndex\":\"8b78dc690ada448ca7b55425e1915b43\",\"srcType\":\"encodeDevice\",\"timeout\":0,\"happenTime\":\"2024-12-28T13:35:32.352+08:00\",\"status\":0}],\"sendTime\":\"2024-12-28T13:35:32.378+08:00\"}"}
{"method":"OnEventNotify","params":"{\"clients\":[\"uavms\",\"uavrpmsweb\"],\"uids\":[\"ljp\",\"test01\",\"tangtang\",\"admin\"],\"ability\":\"event_uav\",\"quids\":[\"ljp\",\"test01\",\"tangtang\",\"admin\"],\"events\":[{\"eventId\":\"78FE07F5-6E1F-D84C-B9D0-D6FE19B755D0\",\"srcName\":\"Camera_01\",\"data\":{\"dateTime\":\"2024-12-28T13:30:46.152+08:00\",\"dataProcInterval\":\"8\",\"portNo\":8257,\"recvTime\":\"2024-12-28T13:30:46.171+08:00\",\"dataType\":\"uavGps\",\"ipAddress\":\"\",\"targetAttrs\":{\"deviceIndexCode\":\"8b78dc690ada448ca7b55425e1915b43\",\"recognitionSign\":1,\"channelName\":\"Camera_01\",\"picServerIndexCode\":\"\",\"cameraIndexCode\":\"4b47720096fa453980491a93cf061a1d\",\"cameraType\":\"COMMON\"},\"channelName\":\"Camera_01\",\"eventType\":\"uavGpsCollection\",\"gpsCollection\":[{\"UAVStatus\":{\"BatteryRemaining\":79,\"PitchAngle\":7.448451042175293,\"HorizontalSpeed\":8.000399589538574,\"Latitude\":30.06728744506836,\"RouteId\":\"\",\"RouteStatus\":255,\"Longitude\":106.6982727050781,\"HorizonalView\":5084,\"SensorSize\":28,\"Focus\":535,\"UavMode\":5,\"RollAngle\":-3.437747001647949,\"RelativeHeight\":120.0727005004883,\"VerticalView\":2993,\"YawAngle\":50.15000152587891,\"VerticalSpeed\":-0.1000000014901161},\"GSStatus\":{\"DataRadioRSSI\":0,\"DivisionEW\":\"E\",\"Latitude\":106.6982574462891,\"ImageRSSI\":0,\"GimbalYaw\":5044,\"Longitude\":30.06728744506836,\"GimbalPitchAngle\":-1150},\"targetAttrs\":{\"deviceIndexCode\":\"8b78dc690ada448ca7b55425e1915b43\",\"recognitionSign\":1,\"channelName\":\"Camera_01\",\"picServerIndexCode\":\"\",\"cameraIndexCode\":\"4b47720096fa453980491a93cf061a1d\",\"cameraType\":\"COMMON\"}}],\"channelID\":1,\"sendTime\":\"2024-12-28T13:30:46.179+08:00\"},\"srcParentIndex\":\"8b78dc690ada448ca7b55425e1915b43\",\"eventType\":852225,\"srcIndex\":\"8b78dc690ada448ca7b55425e1915b43\",\"srcType\":\"encodeDevice\",\"timeout\":0,\"happenTime\":\"2024-12-28T13:30:46.152+08:00\",\"status\":0}],\"sendTime\":\"2024-12-28T13:30:46.179+08:00\"}"}
{"method":"OnEventNotify","params":"{\"clients\":[\"uavms\",\"uavrpmsweb\"],\"uids\":[\"ljp\",\"test01\",\"tangtang\",\"admin\"],\"ability\":\"event_uav\",\"quids\":[\"ljp\",\"test01\",\"tangtang\",\"admin\"],\"events\":[{\"eventId\":\"F6B3E547-9E3C-2643-A2C3-33C90E5D8D10\",\"srcName\":\"Camera_01\",\"data\":{\"dateTime\":\"2024-12-28T13:32:41.780+08:00\",\"dataProcInterval\":\"7\",\"portNo\":8257,\"recvTime\":\"2024-12-28T13:32:41.796+08:00\",\"dataType\":\"uavGps\",\"ipAddress\":\"\",\"targetAttrs\":{\"deviceIndexCode\":\"8b78dc690ada448ca7b55425e1915b43\",\"recognitionSign\":1,\"channelName\":\"Camera_01\",\"picServerIndexCode\":\"\",\"cameraIndexCode\":\"4b47720096fa453980491a93cf061a1d\",\"cameraType\":\"COMMON\"},\"channelName\":\"Camera_01\",\"eventType\":\"uavGpsCollection\",\"gpsCollection\":[{\"UAVStatus\":{\"BatteryRemaining\":74,\"PitchAngle\":5.156620025634766,\"HorizontalSpeed\":5.335410118103027,\"Latitude\":30.07270050048828,\"RouteId\":\"\",\"RouteStatus\":255,\"Longitude\":106.7044982910156,\"HorizonalView\":5084,\"SensorSize\":28,\"Focus\":535,\"UavMode\":5,\"RollAngle\":-26.92901611328125,\"RelativeHeight\":119.9286499023438,\"VerticalView\":2993,\"YawAngle\":28.54000091552734,\"VerticalSpeed\":-0.1400000005960464},\"GSStatus\":{\"DataRadioRSSI\":0,\"DivisionEW\":\"E\",\"Latitude\":106.7044982910156,\"ImageRSSI\":0,\"GimbalYaw\":2834,\"Longitude\":30.07269859313965,\"GimbalPitchAngle\":-739},\"targetAttrs\":{\"deviceIndexCode\":\"8b78dc690ada448ca7b55425e1915b43\",\"recognitionSign\":1,\"channelName\":\"Camera_01\",\"picServerIndexCode\":\"\",\"cameraIndexCode\":\"4b47720096fa453980491a93cf061a1d\",\"cameraType\":\"COMMON\"}}],\"channelID\":1,\"sendTime\":\"2024-12-28T13:32:41.803+08:00\"},\"srcParentIndex\":\"8b78dc690ada448ca7b55425e1915b43\",\"eventType\":852225,\"srcIndex\":\"8b78dc690ada448ca7b55425e1915b43\",\"srcType\":\"encodeDevice\",\"timeout\":0,\"happenTime\":\"2024-12-28T13:32:41.780+08:00\",\"status\":0}],\"sendTime\":\"2024-12-28T13:32:41.804+08:00\"}"}
{"method":"OnEventNotify","params":"{\"clients\":[\"uavms\",\"uavrpmsweb\"],\"uids\":[\"ljp\",\"test01\",\"tangtang\",\"admin\"],\"ability\":\"event_uav\",\"quids\":[\"ljp\",\"test01\",\"tangtang\",\"admin\"],\"events\":[{\"eventId\":\"3FDAB3D2-FEF0-6C45-8D7D-8F0C53E9616A\",\"srcName\":\"Camera_01\",\"data\":{\"dateTime\":\"2024-12-28T13:30:13.674+08:00\",\"dataProcInterval\":\"4\",\"portNo\":8257,\"recvTime\":\"2024-12-28T13:30:13.692+08:00\",\"dataType\":\"uavGps\",\"ipAddress\":\"\",\"targetAttrs\":{\"deviceIndexCode\":\"8b78dc690ada448ca7b55425e1915b43\",\"recognitionSign\":1,\"channelName\":\"Camera_01\",\"picServerIndexCode\":\"\",\"cameraIndexCode\":\"4b47720096fa453980491a93cf061a1d\",\"cameraType\":\"COMMON\"},\"channelName\":\"Camera_01\",\"eventType\":\"uavGpsCollection\",\"gpsCollection\":[{\"UAVStatus\":{\"BatteryRemaining\":80,\"PitchAngle\":0,\"HorizontalSpeed\":7.94940185546875,\"Latitude\":30.06604385375977,\"RouteId\":\"\",\"RouteStatus\":255,\"Longitude\":106.6962356567383,\"HorizonalView\":5084,\"SensorSize\":28,\"Focus\":535,\"UavMode\":5,\"RollAngle\":-6.875494003295898,\"RelativeHeight\":120.1363525390625,\"VerticalView\":2993,\"YawAngle\":50.47999954223633,\"VerticalSpeed\":-0.1299999952316284},\"GSStatus\":{\"DataRadioRSSI\":0,\"DivisionEW\":\"E\",\"Latitude\":106.6962203979492,\"ImageRSSI\":0,\"GimbalYaw\":5001,\"Longitude\":30.06603050231934,\"GimbalPitchAngle\":-1207},\"targetAttrs\":{\"deviceIndexCode\":\"8b78dc690ada448ca7b55425e1915b43\",\"recognitionSign\":1,\"channelName\":\"Camera_01\",\"picServerIndexCode\":\"\",\"cameraIndexCode\":\"4b47720096fa453980491a93cf061a1d\",\"cameraType\":\"COMMON\"}}],\"channelID\":1,\"sendTime\":\"2024-12-28T13:30:13.696+08:00\"},\"srcParentIndex\":\"8b78dc690ada448ca7b55425e1915b43\",\"eventType\":852225,\"srcIndex\":\"8b78dc690ada448ca7b55425e1915b43\",\"srcType\":\"encodeDevice\",\"timeout\":0,\"happenTime\":\"2024-12-28T13:30:13.674+08:00\",\"status\":0}],\"sendTime\":\"2024-12-28T13:30:13.696+08:00\"}"}
{"method":"OnEventNotify","params":"{\"clients\":[\"uavms\",\"uavrpmsweb\"],\"uids\":[\"ljp\",\"test01\",\"tangtang\",\"admin\"],\"ability\":\"event_uav\",\"quids\":[\"ljp\",\"test01\",\"tangtang\",\"admin\"],\"events\":[{\"eventId\":\"BC58FED3-F478-3C48-B642-B2132AE67B32\",\"srcName\":\"Camera_01\",\"data\":{\"dateTime\":\"2024-12-28T13:31:22.660+08:00\",\"dataProcInterval\":\"3\",\"portNo\":8257,\"recvTime\":\"2024-12-28T13:31:22.668+08:00\",\"dataType\":\"uavGps\",\"ipAddress\":\"\",\"targetAttrs\":{\"deviceIndexCode\":\"8b78dc690ada448ca7b55425e1915b43\",\"recognitionSign\":1,\"channelName\":\"Camera_01\",\"picServerIndexCode\":\"\",\"cameraIndexCode\":\"4b47720096fa453980491a93cf061a1d\",\"cameraType\":\"COMMON\"},\"channelName\":\"Camera_01\",\"eventType\":\"uavGpsCollection\",\"gpsCollection\":[{\"UAVStatus\":{\"BatteryRemaining\":77,\"PitchAngle\":0.5729579925537109,\"HorizontalSpeed\":7.973563194274902,\"Latitude\":30.06845092773438,\"RouteId\":\"\",\"RouteStatus\":255,\"Longitude\":106.7007217407227,\"HorizonalView\":5084,\"SensorSize\":28,\"Focus\":535,\"UavMode\":5,\"RollAngle\":-5.156620025634766,\"RelativeHeight\":119.9564743041992,\"VerticalView\":2993,\"YawAngle\":49.9900016784668,\"VerticalSpeed\":0.05999999865889549},\"GSStatus\":{\"DataRadioRSSI\":0,\"DivisionEW\":\"E\",\"Latitude\":106.7007217407227,\"ImageRSSI\":0,\"GimbalYaw\":4992,\"Longitude\":30.06845092773438,\"GimbalPitchAngle\":-1269},\"targetAttrs\":{\"deviceIndexCode\":\"8b78dc690ada448ca7b55425e1915b43\",\"recognitionSign\":1,\"channelName\":\"Camera_01\",\"picServerIndexCode\":\"\",\"cameraIndexCode\":\"4b47720096fa453980491a93cf061a1d\",\"cameraType\":\"COMMON\"}}],\"channelID\":1,\"sendTime\":\"2024-12-28T13:31:22.671+08:00\"},\"srcParentIndex\":\"8b78dc690ada448ca7b55425e1915b43\",\"eventType\":852225,\"srcIndex\":\"8b78dc690ada448ca7b55425e1915b43\",\"srcType\":\"encodeDevice\",\"timeout\":0,\"happenTime\":\"2024-12-28T13:31:22.660+08:00\",\"status\":0}],\"sendTime\":\"2024-12-28T13:31:22.672+08:00\"}"}
{"method":"OnEventNotify","params":"{\"clients\":[\"uavms\",\"uavrpmsweb\"],\"uids\":[\"ljp\",\"test01\",\"tangtang\",\"admin\"],\"ability\":\"event_uav\",\"quids\":[\"ljp\",\"test01\",\"tangtang\",\"admin\"],\"events\":[{\"eventId\":\"E8DAD852-892F-7640-9126-11F1073860AF\",\"srcName\":\"Camera_01\",\"data\":{\"dateTime\":\"2024-12-28T13:33:42.700+08:00\",\"dataProcInterval\":\"7\",\"portNo\":8257,\"recvTime\":\"2024-12-28T13:33:42.716+08:00\",\"dataType\":\"uavGps\",\"ipAddress\":\"\",\"targetAttrs\":{\"deviceIndexCode\":\"8b78dc690ada448ca7b55425e1915b43\",\"recognitionSign\":1,\"channelName\":\"Camera_01\",\"picServerIndexCode\":\"\",\"cameraIndexCode\":\"4b47720096fa453980491a93cf061a1d\",\"cameraType\":\"COMMON\"},\"channelName\":\"Camera_01\",\"eventType\":\"uavGpsCollection\",\"gpsCollection\":[{\"UAVStatus\":{\"BatteryRemaining\":72,\"PitchAngle\":1.145915985107422,\"HorizontalSpeed\":7.96917200088501,\"Latitude\":30.07617568969727,\"RouteId\":\"\",\"RouteStatus\":255,\"Longitude\":106.707405090332,\"HorizonalView\":5084,\"SensorSize\":28,\"Focus\":535,\"UavMode\":5,\"RollAngle\":-4.01070499420166,\"RelativeHeight\":119.9790420532227,\"VerticalView\":2993,\"YawAngle\":25.84000015258789,\"VerticalSpeed\":0.009999999776482582},\"GSStatus\":{\"DataRadioRSSI\":0,\"DivisionEW\":\"E\",\"Latitude\":106.7074127197266,\"ImageRSSI\":0,\"GimbalYaw\":2494,\"Longitude\":30.0761775970459,\"GimbalPitchAngle\":-1152},\"targetAttrs\":{\"deviceIndexCode\":\"8b78dc690ada448ca7b55425e1915b43\",\"recognitionSign\":1,\"channelName\":\"Camera_01\",\"picServerIndexCode\":\"\",\"cameraIndexCode\":\"4b47720096fa453980491a93cf061a1d\",\"cameraType\":\"COMMON\"}}],\"channelID\":1,\"sendTime\":\"2024-12-28T13:33:42.723+08:00\"},\"srcParentIndex\":\"8b78dc690ada448ca7b55425e1915b43\",\"eventType\":852225,\"srcIndex\":\"8b78dc690ada448ca7b55425e1915b43\",\"srcType\":\"encodeDevice\",\"timeout\":0,\"happenTime\":\"2024-12-28T13:33:42.700+08:00\",\"status\":0}],\"sendTime\":\"2024-12-28T13:33:42.723+08:00\"}"}
{"method":"OnEventNotify","params":"{\"clients\":[\"uavms\",\"uavrpmsweb\"],\"uids\":[\"ljp\",\"test01\",\"tangtang\",\"admin\"],\"ability\":\"event_uav\",\"quids\":[\"ljp\",\"test01\",\"tangtang\",\"admin\"],\"events\":[{\"eventId\":\"925B260E-832E-D845-BA6D-F78847F7DBDA\",\"srcName\":\"Camera_01\",\"data\":{\"dateTime\":\"2024-12-28T13:33:54.849+08:00\",\"dataProcInterval\":\"9\",\"portNo\":8257,\"recvTime\":\"2024-12-28T13:33:54.858+08:00\",\"dataType\":\"uavGps\",\"ipAddress\":\"\",\"targetAttrs\":{\"deviceIndexCode\":\"8b78dc690ada448ca7b55425e1915b43\",\"recognitionSign\":1,\"channelName\":\"Camera_01\",\"picServerIndexCode\":\"\",\"cameraIndexCode\":\"4b47720096fa453980491a93cf061a1d\",\"cameraType\":\"COMMON\"},\"channelName\":\"Camera_01\",\"eventType\":\"uavGpsCollection\",\"gpsCollection\":[{\"UAVStatus\":{\"BatteryRemaining\":71,\"PitchAngle\":2.291831016540527,\"HorizontalSpeed\":7.947440147399902,\"Latitude\":30.07683753967285,\"RouteId\":\"\",\"RouteStatus\":255,\"Longitude\":106.7080535888672,\"HorizonalView\":5084,\"SensorSize\":28,\"Focus\":535,\"UavMode\":5,\"RollAngle\":-4.01070499420166,\"RelativeHeight\":120.0569686889648,\"VerticalView\":2993,\"YawAngle\":25.38999938964844,\"VerticalSpeed\":-0.05999999865889549},\"GSStatus\":{\"DataRadioRSSI\":0,\"DivisionEW\":\"E\",\"Latitude\":106.7080383300781,\"ImageRSSI\":0,\"GimbalYaw\":2489,\"Longitude\":30.07682609558105,\"GimbalPitchAngle\":-1196},\"targetAttrs\":{\"deviceIndexCode\":\"8b78dc690ada448ca7b55425e1915b43\",\"recognitionSign\":1,\"channelName\":\"Camera_01\",\"picServerIndexCode\":\"\",\"cameraIndexCode\":\"4b47720096fa453980491a93cf061a1d\",\"cameraType\":\"COMMON\"}}],\"channelID\":1,\"sendTime\":\"2024-12-28T13:33:54.867+08:00\"},\"srcParentIndex\":\"8b78dc690ada448ca7b55425e1915b43\",\"eventType\":852225,\"srcIndex\":\"8b78dc690ada448ca7b55425e1915b43\",\"srcType\":\"encodeDevice\",\"timeout\":0,\"happenTime\":\"2024-12-28T13:33:54.849+08:00\",\"status\":0}],\"sendTime\":\"2024-12-28T13:33:54.868+08:00\"}"}
{"method":"OnEventNotify","params":"{\"clients\":[\"uavms\",\"uavrpmsweb\"],\"uids\":[\"ljp\",\"test01\",\"tangtang\",\"admin\"],\"ability\":\"event_uav\",\"quids\":[\"ljp\",\"test01\",\"tangtang\",\"admin\"],\"events\":[{\"eventId\":\"7D38B432-B19D-3C49-9FE4-64F03F8D2443\",\"srcName\":\"Camera_01\",\"data\":{\"dateTime\":\"2024-12-28T13:30:52.240+08:00\",\"dataProcInterval\":\"5\",\"portNo\":8257,\"recvTime\":\"2024-12-28T13:30:52.256+08:00\",\"dataType\":\"uavGps\",\"ipAddress\":\"\",\"targetAttrs\":{\"deviceIndexCode\":\"8b78dc690ada448ca7b55425e1915b43\",\"recognitionSign\":1,\"channelName\":\"Camera_01\",\"picServerIndexCode\":\"\",\"cameraIndexCode\":\"4b47720096fa453980491a93cf061a1d\",\"cameraType\":\"COMMON\"},\"channelName\":\"Camera_01\",\"eventType\":\"uavGpsCollection\",\"gpsCollection\":[{\"UAVStatus\":{\"BatteryRemaining\":79,\"PitchAngle\":4.583662033081055,\"HorizontalSpeed\":8.032745361328125,\"Latitude\":30.06736946105957,\"RouteId\":\"\",\"RouteStatus\":255,\"Longitude\":106.6986846923828,\"HorizonalView\":5084,\"SensorSize\":28,\"Focus\":535,\"UavMode\":5,\"RollAngle\":-5.156620025634766,\"RelativeHeight\":119.9658584594727,\"VerticalView\":2993,\"YawAngle\":50.09000015258789,\"VerticalSpeed\":0.05999999865889549},\"GSStatus\":{\"DataRadioRSSI\":0,\"DivisionEW\":\"E\",\"Latitude\":106.6986694335938,\"ImageRSSI\":0,\"GimbalYaw\":5035,\"Longitude\":30.06736183166504,\"GimbalPitchAngle\":-1225},\"targetAttrs\":{\"deviceIndexCode\":\"8b78dc690ada448ca7b55425e1915b43\",\"recognitionSign\":1,\"channelName\":\"Camera_01\",\"picServerIndexCode\":\"\",\"cameraIndexCode\":\"4b47720096fa453980491a93cf061a1d\",\"cameraType\":\"COMMON\"}}],\"channelID\":1,\"sendTime\":\"2024-12-28T13:30:52.261+08:00\"},\"srcParentIndex\":\"8b78dc690ada448ca7b55425e1915b43\",\"eventType\":852225,\"srcIndex\":\"8b78dc690ada448ca7b55425e1915b43\",\"srcType\":\"encodeDevice\",\"timeout\":0,\"happenTime\":\"2024-12-28T13:30:52.240+08:00\",\"status\":0}],\"sendTime\":\"2024-12-28T13:30:52.261+08:00\"}"}
{"method":"OnEventNotify","params":"{\"clients\":[\"uavms\",\"uavrpmsweb\"],\"uids\":[\"ljp\",\"test01\",\"tangtang\",\"admin\"],\"ability\":\"event_uav\",\"quids\":[\"ljp\",\"test01\",\"tangtang\",\"admin\"],\"events\":[{\"eventId\":\"A818689E-F633-6944-8AEA-7E9DC5D5691C\",\"srcName\":\"Camera_01\",\"data\":{\"dateTime\":\"2024-12-28T13:30:03.550+08:00\",\"dataProcInterval\":\"3\",\"portNo\":8257,\"recvTime\":\"2024-12-28T13:30:03.562+08:00\",\"dataType\":\"uavGps\",\"ipAddress\":\"\",\"targetAttrs\":{\"deviceIndexCode\":\"8b78dc690ada448ca7b55425e1915b43\",\"recognitionSign\":1,\"channelName\":\"Camera_01\",\"picServerIndexCode\":\"\",\"cameraIndexCode\":\"4b47720096fa453980491a93cf061a1d\",\"cameraType\":\"COMMON\"},\"channelName\":\"Camera_01\",\"eventType\":\"uavGpsCollection\",\"gpsCollection\":[{\"UAVStatus\":{\"BatteryRemaining\":81,\"PitchAngle\":-0.5729579925537109,\"HorizontalSpeed\":7.971506118774414,\"Latitude\":30.06546783447266,\"RouteId\":\"\",\"RouteStatus\":255,\"Longitude\":106.6957778930664,\"HorizonalView\":5084,\"SensorSize\":28,\"Focus\":535,\"UavMode\":5,\"RollAngle\":-3.437747001647949,\"RelativeHeight\":120.0035781860352,\"VerticalView\":2993,\"YawAngle\":47.79999923706055,\"VerticalSpeed\":0.05999999865889549},\"GSStatus\":{\"DataRadioRSSI\":0,\"DivisionEW\":\"E\",\"Latitude\":106.6957626342773,\"ImageRSSI\":0,\"GimbalYaw\":4706,\"Longitude\":30.06545639038086,\"GimbalPitchAngle\":-1250},\"targetAttrs\":{\"deviceIndexCode\":\"8b78dc690ada448ca7b55425e1915b43\",\"recognitionSign\":1,\"channelName\":\"Camera_01\",\"picServerIndexCode\":\"\",\"cameraIndexCode\":\"4b47720096fa453980491a93cf061a1d\",\"cameraType\":\"COMMON\"}}],\"channelID\":1,\"sendTime\":\"2024-12-28T13:30:03.565+08:00\"},\"srcParentIndex\":\"8b78dc690ada448ca7b55425e1915b43\",\"eventType\":852225,\"srcIndex\":\"8b78dc690ada448ca7b55425e1915b43\",\"srcType\":\"encodeDevice\",\"timeout\":0,\"happenTime\":\"2024-12-28T13:30:03.550+08:00\",\"status\":0}],\"sendTime\":\"2024-12-28T13:30:03.565+08:00\"}"}
{"method":"OnEventNotify","params":"{\"clients\":[\"uavms\",\"uavrpmsweb\"],\"uids\":[\"ljp\",\"test01\",\"tangtang\",\"admin\"],\"ability\":\"event_uav\",\"quids\":[\"ljp\",\"test01\",\"tangtang\",\"admin\"],\"events\":[{\"eventId\":\"A1B9C211-CC31-AB46-80DE-52A33760B933\",\"srcName\":\"Camera_01\",\"data\":{\"dateTime\":\"2024-12-28T13:37:35.957+08:00\",\"dataProcInterval\":\"10\",\"portNo\":8257,\"recvTime\":\"2024-12-28T13:37:35.969+08:00\",\"dataType\":\"uavGps\",\"ipAddress\":\"\",\"targetAttrs\":{\"deviceIndexCode\":\"8b78dc690ada448ca7b55425e1915b43\",\"recognitionSign\":1,\"channelName\":\"Camera_01\",\"picServerIndexCode\":\"\",\"cameraIndexCode\":\"4b47720096fa453980491a93cf061a1d\",\"cameraType\":\"COMMON\"},\"channelName\":\"Camera_01\",\"eventType\":\"uavGpsCollection\",\"gpsCollection\":[{\"UAVStatus\":{\"BatteryRemaining\":61,\"PitchAngle\":-1.718873023986816,\"HorizontalSpeed\":0.05385199934244156,\"Latitude\":30.08419418334961,\"RouteId\":\"\",\"RouteStatus\":255,\"Longitude\":106.7114410400391,\"HorizonalView\":5084,\"SensorSize\":28,\"Focus\":535,\"UavMode\":9,\"RollAngle\":2.291831016540527,\"RelativeHeight\":120.0630416870117,\"VerticalView\":2993,\"YawAngle\":207.1199951171875,\"VerticalSpeed\":0},\"GSStatus\":{\"DataRadioRSSI\":0,\"DivisionEW\":\"E\",\"Latitude\":106.7114410400391,\"ImageRSSI\":0,\"GimbalYaw\":-15493,\"Longitude\":30.08419418334961,\"GimbalPitchAngle\":-885},\"targetAttrs\":{\"deviceIndexCode\":\"8b78dc690ada448ca7b55425e1915b43\",\"recognitionSign\":1,\"channelName\":\"Camera_01\",\"picServerIndexCode\":\"\",\"cameraIndexCode\":\"4b47720096fa453980491a93cf061a1d\",\"cameraType\":\"COMMON\"}}],\"channelID\":1,\"sendTime\":\"2024-12-28T13:37:35.979+08:00\"},\"srcParentIndex\":\"8b78dc690ada448ca7b55425e1915b43\",\"eventType\":852225,\"srcIndex\":\"8b78dc690ada448ca7b55425e1915b43\",\"srcType\":\"encodeDevice\",\"timeout\":0,\"happenTime\":\"2024-12-28T13:37:35.957+08:00\",\"status\":0}],\"sendTime\":\"2024-12-28T13:37:35.979+08:00\"}"}
{"method":"OnEventNotify","params":"{\"clients\":[\"uavms\",\"uavrpmsweb\"],\"uids\":[\"ljp\",\"test01\",\"tangtang\",\"admin\"],\"ability\":\"event_uav\",\"quids\":[\"ljp\",\"test01\",\"tangtang\",\"admin\"],\"events\":[{\"eventId\":\"58B0AB1F-ADBD-A842-BD28-FE8D81FF829E\",\"srcName\":\"Camera_01\",\"data\":{\"dateTime\":\"2024-12-28T13:34:11.091+08:00\",\"dataProcInterval\":\"10\",\"portNo\":8257,\"recvTime\":\"2024-12-28T13:34:11.101+08:00\",\"dataType\":\"uavGps\",\"ipAddress\":\"\",\"targetAttrs\":{\"deviceIndexCode\":\"8b78dc690ada448ca7b55425e1915b43\",\"recognitionSign\":1,\"channelName\":\"Camera_01\",\"picServerIndexCode\":\"\",\"cameraIndexCode\":\"4b47720096fa453980491a93cf061a1d\",\"cameraType\":\"COMMON\"},\"channelName\":\"Camera_01\",\"eventType\":\"uavGpsCollection\",\"gpsCollection\":[{\"UAVStatus\":{\"BatteryRemaining\":70,\"PitchAngle\":2.291831016540527,\"HorizontalSpeed\":7.912584781646729,\"Latitude\":30.07774353027344,\"RouteId\":\"\",\"RouteStatus\":255,\"Longitude\":106.7089385986328,\"HorizonalView\":5084,\"SensorSize\":28,\"Focus\":535,\"UavMode\":5,\"RollAngle\":-6.302536010742188,\"RelativeHeight\":120.0412139892578,\"VerticalView\":2993,\"YawAngle\":25.70999908447266,\"VerticalSpeed\":-0.1800000071525574},\"GSStatus\":{\"DataRadioRSSI\":0,\"DivisionEW\":\"E\",\"Latitude\":106.7089385986328,\"ImageRSSI\":0,\"GimbalYaw\":2476,\"Longitude\":30.0777416229248,\"GimbalPitchAngle\":-1258},\"targetAttrs\":{\"deviceIndexCode\":\"8b78dc690ada448ca7b55425e1915b43\",\"recognitionSign\":1,\"channelName\":\"Camera_01\",\"picServerIndexCode\":\"\",\"cameraIndexCode\":\"4b47720096fa453980491a93cf061a1d\",\"cameraType\":\"COMMON\"}}],\"channelID\":1,\"sendTime\":\"2024-12-28T13:34:11.111+08:00\"},\"srcParentIndex\":\"8b78dc690ada448ca7b55425e1915b43\",\"eventType\":852225,\"srcIndex\":\"8b78dc690ada448ca7b55425e1915b43\",\"srcType\":\"encodeDevice\",\"timeout\":0,\"happenTime\":\"2024-12-28T13:34:11.091+08:00\",\"status\":0}],\"sendTime\":\"2024-12-28T13:34:11.111+08:00\"}"}
{"method":"OnEventNotify","params":"{\"clients\":[\"uavms\",\"uavrpmsweb\"],\"uids\":[\"ljp\",\"test01\",\"tangtang\",\"admin\"],\"ability\":\"event_uav\",\"quids\":[\"ljp\",\"test01\",\"tangtang\",\"admin\"],\"events\":[{\"eventId\":\"084DE317-301F-5843-B3C2-73333BD1EBC2\",\"srcName\":\"Camera_01\",\"data\":{\"dateTime\":\"2024-12-28T13:36:53.372+08:00\",\"dataProcInterval\":\"10\",\"portNo\":8257,\"recvTime\":\"2024-12-28T13:36:53.384+08:00\",\"dataType\":\"uavGps\",\"ipAddress\":\"\",\"targetAttrs\":{\"deviceIndexCode\":\"8b78dc690ada448ca7b55425e1915b43\",\"recognitionSign\":1,\"channelName\":\"Camera_01\",\"picServerIndexCode\":\"\",\"cameraIndexCode\":\"4b47720096fa453980491a93cf061a1d\",\"cameraType\":\"COMMON\"},\"channelName\":\"Camera_01\",\"eventType\":\"uavGpsCollection\",\"gpsCollection\":[{\"UAVStatus\":{\"BatteryRemaining\":63,\"PitchAngle\":0.5729579925537109,\"HorizontalSpeed\":0.02999999932944775,\"Latitude\":30.08419418334961,\"RouteId\":\"\",\"RouteStatus\":255,\"Longitude\":106.7114410400391,\"HorizonalView\":5084,\"SensorSize\":28,\"Focus\":535,\"UavMode\":9,\"RollAngle\":1.145915985107422,\"RelativeHeight\":120.0231018066406,\"VerticalView\":2993,\"YawAngle\":4.760000228881836,\"VerticalSpeed\":-0.02999999932944775},\"GSStatus\":{\"DataRadioRSSI\":0,\"DivisionEW\":\"E\",\"Latitude\":106.7114410400391,\"ImageRSSI\":0,\"GimbalYaw\":458,\"Longitude\":30.08419418334961,\"GimbalPitchAngle\":-1033},\"targetAttrs\":{\"deviceIndexCode\":\"8b78dc690ada448ca7b55425e1915b43\",\"recognitionSign\":1,\"channelName\":\"Camera_01\",\"picServerIndexCode\":\"\",\"cameraIndexCode\":\"4b47720096fa453980491a93cf061a1d\",\"cameraType\":\"COMMON\"}}],\"channelID\":1,\"sendTime\":\"2024-12-28T13:36:53.394+08:00\"},\"srcParentIndex\":\"8b78dc690ada448ca7b55425e1915b43\",\"eventType\":852225,\"srcIndex\":\"8b78dc690ada448ca7b55425e1915b43\",\"srcType\":\"encodeDevice\",\"timeout\":0,\"happenTime\":\"2024-12-28T13:36:53.372+08:00\",\"status\":0}],\"sendTime\":\"2024-12-28T13:36:53.394+08:00\"}"}
{"method":"OnEventNotify","params":"{\"clients\":[\"uavms\",\"uavrpmsweb\"],\"uids\":[\"ljp\",\"test01\",\"tangtang\",\"admin\"],\"ability\":\"event_uav\",\"quids\":[\"ljp\",\"test01\",\"tangtang\",\"admin\"],\"events\":[{\"eventId\":\"70D378CF-B1D0-7348-999C-6743A9FC59AB\",\"srcName\":\"Camera_01\",\"data\":{\"dateTime\":\"2024-12-28T13:30:09.628+08:00\",\"dataProcInterval\":\"3\",\"portNo\":8257,\"recvTime\":\"2024-12-28T13:30:09.642+08:00\",\"dataType\":\"uavGps\",\"ipAddress\":\"\",\"targetAttrs\":{\"deviceIndexCode\":\"8b78dc690ada448ca7b55425e1915b43\",\"recognitionSign\":1,\"channelName\":\"Camera_01\",\"picServerIndexCode\":\"\",\"cameraIndexCode\":\"4b47720096fa453980491a93cf061a1d\",\"cameraType\":\"COMMON\"},\"channelName\":\"Camera_01\",\"eventType\":\"uavGpsCollection\",\"gpsCollection\":[{\"UAVStatus\":{\"BatteryRemaining\":80,\"PitchAngle\":0,\"HorizontalSpeed\":7.764078140258789,\"Latitude\":30.06586074829102,\"RouteId\":\"\",\"RouteStatus\":255,\"Longitude\":106.6960754394531,\"HorizonalView\":5084,\"SensorSize\":28,\"Focus\":535,\"UavMode\":5,\"RollAngle\":4.583662033081055,\"RelativeHeight\":120.0441970825195,\"VerticalView\":2993,\"YawAngle\":49.06999969482422,\"VerticalSpeed\":-0.01999999955296516},\"GSStatus\":{\"DataRadioRSSI\":0,\"DivisionEW\":\"E\",\"Latitude\":106.6960525512695,\"ImageRSSI\":0,\"GimbalYaw\":4868,\"Longitude\":30.06584167480469,\"GimbalPitchAngle\":-1319},\"targetAttrs\":{\"deviceIndexCode\":\"8b78dc690ada448ca7b55425e1915b43\",\"recognitionSign\":1,\"channelName\":\"Camera_01\",\"picServerIndexCode\":\"\",\"cameraIndexCode\":\"4b47720096fa453980491a93cf061a1d\",\"cameraType\":\"COMMON\"}}],\"channelID\":1,\"sendTime\":\"2024-12-28T13:30:09.645+08:00\"},\"srcParentIndex\":\"8b78dc690ada448ca7b55425e1915b43\",\"eventType\":852225,\"srcIndex\":\"8b78dc690ada448ca7b55425e1915b43\",\"srcType\":\"encodeDevice\",\"timeout\":0,\"happenTime\":\"2024-12-28T13:30:09.628+08:00\",\"status\":0}],\"sendTime\":\"2024-12-28T13:30:09.645+08:00\"}"}
{"method":"OnEventNotify","params":"{\"clients\":[\"uavms\",\"uavrpmsweb\"],\"uids\":[\"ljp\",\"test01\",\"tangtang\",\"admin\"],\"ability\":\"event_uav\",\"quids\":[\"ljp\",\"test01\",\"tangtang\",\"admin\"],\"events\":[{\"eventId\":\"3F90C5D3-8F33-E741-A365-ED63CD2DB7AC\",\"srcName\":\"Camera_01\",\"data\":{\"dateTime\":\"2024-12-28T13:37:46.147+08:00\",\"dataProcInterval\":\"5\",\"portNo\":8257,\"recvTime\":\"2024-12-28T13:37:46.162+08:00\",\"dataType\":\"uavGps\",\"ipAddress\":\"\",\"targetAttrs\":{\"deviceIndexCode\":\"8b78dc690ada448ca7b55425e1915b43\",\"recognitionSign\":1,\"channelName\":\"Camera_01\",\"picServerIndexCode\":\"\",\"cameraIndexCode\":\"4b47720096fa453980491a93cf061a1d\",\"cameraType\":\"COMMON\"},\"channelName\":\"Camera_01\",\"eventType\":\"uavGpsCollection\",\"gpsCollection\":[{\"UAVStatus\":{\"BatteryRemaining\":61,\"PitchAngle\":-2.864789009094238,\"HorizontalSpeed\":0.03999999910593033,\"Latitude\":30.08419418334961,\"RouteId\":\"\",\"RouteStatus\":255,\"Longitude\":106.7114410400391,\"HorizonalView\":5084,\"SensorSize\":28,\"Focus\":535,\"UavMode\":9,\"RollAngle\":1.718873023986816,\"RelativeHeight\":120.0500869750977,\"VerticalView\":2993,\"YawAngle\":206.7599945068359,\"VerticalSpeed\":-0.01999999955296516},\"GSStatus\":{\"DataRadioRSSI\":0,\"DivisionEW\":\"E\",\"Latitude\":106.7114410400391,\"ImageRSSI\":0,\"GimbalYaw\":-15444,\"Longitude\":30.08419418334961,\"GimbalPitchAngle\":-906},\"targetAttrs\":{\"deviceIndexCode\":\"8b78dc690ada448ca7b55425e1915b43\",\"recognitionSign\":1,\"channelName\":\"Camera_01\",\"picServerIndexCode\":\"\",\"cameraIndexCode\":\"4b47720096fa453980491a93cf061a1d\",\"cameraType\":\"COMMON\"}}],\"channelID\":1,\"sendTime\":\"2024-12-28T13:37:46.167+08:00\"},\"srcParentIndex\":\"8b78dc690ada448ca7b55425e1915b43\",\"eventType\":852225,\"srcIndex\":\"8b78dc690ada448ca7b55425e1915b43\",\"srcType\":\"encodeDevice\",\"timeout\":0,\"happenTime\":\"2024-12-28T13:37:46.147+08:00\",\"status\":0}],\"sendTime\":\"2024-12-28T13:37:46.168+08:00\"}"}
{"method":"OnEventNotify","params":"{\"clients\":[\"uavms\",\"uavrpmsweb\"],\"uids\":[\"ljp\",\"test01\",\"tangtang\",\"admin\"],\"ability\":\"event_uav\",\"quids\":[\"ljp\",\"test01\",\"tangtang\",\"admin\"],\"events\":[{\"eventId\":\"7CA45E5F-77C7-F74B-A0EE-297991785168\",\"srcName\":\"Camera_01\",\"data\":{\"dateTime\":\"2024-12-28T13:33:56.893+08:00\",\"dataProcInterval\":\"11\",\"portNo\":8257,\"recvTime\":\"2024-12-28T13:33:56.908+08:00\",\"dataType\":\"uavGps\",\"ipAddress\":\"\",\"targetAttrs\":{\"deviceIndexCode\":\"8b78dc690ada448ca7b55425e1915b43\",\"recognitionSign\":1,\"channelName\":\"Camera_01\",\"picServerIndexCode\":\"\",\"cameraIndexCode\":\"4b47720096fa453980491a93cf061a1d\",\"cameraType\":\"COMMON\"},\"channelName\":\"Camera_01\",\"eventType\":\"uavGpsCollection\",\"gpsCollection\":[{\"UAVStatus\":{\"BatteryRemaining\":71,\"PitchAngle\":2.291831016540527,\"HorizontalSpeed\":7.980934143066406,\"Latitude\":30.07694625854492,\"RouteId\":\"\",\"RouteStatus\":255,\"Longitude\":106.7081604003906,\"HorizonalView\":5084,\"SensorSize\":28,\"Focus\":535,\"UavMode\":5,\"RollAngle\":-3.437747001647949,\"RelativeHeight\":120.0269165039062,\"VerticalView\":2993,\"YawAngle\":25.73999977111816,\"VerticalSpeed\":-0.09000000357627869},\"GSStatus\":{\"DataRadioRSSI\":0,\"DivisionEW\":\"E\",\"Latitude\":106.7081527709961,\"ImageRSSI\":0,\"GimbalYaw\":2486,\"Longitude\":30.07693862915039,\"GimbalPitchAngle\":-1203},\"targetAttrs\":{\"deviceIndexCode\":\"8b78dc690ada448ca7b55425e1915b43\",\"recognitionSign\":1,\"channelName\":\"Camera_01\",\"picServerIndexCode\":\"\",\"cameraIndexCode\":\"4b47720096fa453980491a93cf061a1d\",\"cameraType\":\"COMMON\"}}],\"channelID\":1,\"sendTime\":\"2024-12-28T13:33:56.919+08:00\"},\"srcParentIndex\":\"8b78dc690ada448ca7b55425e1915b43\",\"eventType\":852225,\"srcIndex\":\"8b78dc690ada448ca7b55425e1915b43\",\"srcType\":\"encodeDevice\",\"timeout\":0,\"happenTime\":\"2024-12-28T13:33:56.893+08:00\",\"status\":0}],\"sendTime\":\"2024-12-28T13:33:56.919+08:00\"}"}
{"method":"OnEventNotify","params":"{\"clients\":[\"uavms\",\"uavrpmsweb\"],\"uids\":[\"ljp\",\"test01\",\"tangtang\",\"admin\"],\"ability\":\"event_uav\",\"quids\":[\"ljp\",\"test01\",\"tangtang\",\"admin\"],\"events\":[{\"eventId\":\"54BAE275-E214-8F46-BBE4-7A362E19A9AB\",\"srcName\":\"Camera_01\",\"data\":{\"dateTime\":\"2024-12-28T13:36:00.631+08:00\",\"dataProcInterval\":\"1\",\"portNo\":8257,\"recvTime\":\"2024-12-28T13:36:00.640+08:00\",\"dataType\":\"uavGps\",\"ipAddress\":\"\",\"targetAttrs\":{\"deviceIndexCode\":\"8b78dc690ada448ca7b55425e1915b43\",\"recognitionSign\":1,\"channelName\":\"Camera_01\",\"picServerIndexCode\":\"\",\"cameraIndexCode\":\"4b47720096fa453980491a93cf061a1d\",\"cameraType\":\"COMMON\"},\"channelName\":\"Camera_01\",\"eventType\":\"uavGpsCollection\",\"gpsCollection\":[{\"UAVStatus\":{\"BatteryRemaining\":66,\"PitchAngle\":0.5729579925537109,\"HorizontalSpeed\":0.01999999955296516,\"Latitude\":30.08419609069824,\"RouteId\":\"\",\"RouteStatus\":255,\"Longitude\":106.7114410400391,\"HorizonalView\":5084,\"SensorSize\":28,\"Focus\":535,\"UavMode\":9,\"RollAngle\":1.718873023986816,\"RelativeHeight\":119.9819259643555,\"VerticalView\":2993,\"YawAngle\":4.820000171661377,\"VerticalSpeed\":0.02999999932944775},\"GSStatus\":{\"DataRadioRSSI\":0,\"DivisionEW\":\"E\",\"Latitude\":106.7114410400391,\"ImageRSSI\":0,\"GimbalYaw\":491,\"Longitude\":30.08419418334961,\"GimbalPitchAngle\":-1046},\"targetAttrs\":{\"deviceIndexCode\":\"8b78dc690ada448ca7b55425e1915b43\",\"recognitionSign\":1,\"channelName\":\"Camera_01\",\"picServerIndexCode\":\"\",\"cameraIndexCode\":\"4b47720096fa453980491a93cf061a1d\",\"cameraType\":\"COMMON\"}}],\"channelID\":1,\"sendTime\":\"2024-12-28T13:36:00.641+08:00\"},\"srcParentIndex\":\"8b78dc690ada448ca7b55425e1915b43\",\"eventType\":852225,\"srcIndex\":\"8b78dc690ada448ca7b55425e1915b43\",\"srcType\":\"encodeDevice\",\"timeout\":0,\"happenTime\":\"2024-12-28T13:36:00.631+08:00\",\"status\":0}],\"sendTime\":\"2024-12-28T13:36:00.642+08:00\"}"}
{"method":"OnEventNotify","params":"{\"clients\":[\"uavms\",\"uavrpmsweb\"],\"uids\":[\"ljp\",\"test01\",\"tangtang\",\"admin\"],\"ability\":\"event_uav\",\"quids\":[\"ljp\",\"test01\",\"tangtang\",\"admin\"],\"events\":[{\"eventId\":\"62A0BB57-168B-984C-B566-2953E6C41923\",\"srcName\":\"Camera_01\",\"data\":{\"dateTime\":\"2024-12-28T13:34:59.791+08:00\",\"dataProcInterval\":\"10\",\"portNo\":8257,\"recvTime\":\"2024-12-28T13:34:59.798+08:00\",\"dataType\":\"uavGps\",\"ipAddress\":\"\",\"targetAttrs\":{\"deviceIndexCode\":\"8b78dc690ada448ca7b55425e1915b43\",\"recognitionSign\":1,\"channelName\":\"Camera_01\",\"picServerIndexCode\":\"\",\"cameraIndexCode\":\"4b47720096fa453980491a93cf061a1d\",\"cameraType\":\"COMMON\"},\"channelName\":\"Camera_01\",\"eventType\":\"uavGpsCollection\",\"gpsCollection\":[{\"UAVStatus\":{\"BatteryRemaining\":68,\"PitchAngle\":-0.5729579925537109,\"HorizontalSpeed\":7.989123821258545,\"Latitude\":30.08066368103027,\"RouteId\":\"\",\"RouteStatus\":255,\"Longitude\":106.7108612060547,\"HorizonalView\":5084,\"SensorSize\":28,\"Focus\":535,\"UavMode\":5,\"RollAngle\":-4.01070499420166,\"RelativeHeight\":119.8847351074219,\"VerticalView\":2993,\"YawAngle\":20.21999931335449,\"VerticalSpeed\":0.1800000071525574},\"GSStatus\":{\"DataRadioRSSI\":0,\"DivisionEW\":\"E\",\"Latitude\":106.7108612060547,\"ImageRSSI\":0,\"GimbalYaw\":1988,\"Longitude\":30.08066177368164,\"GimbalPitchAngle\":-1223},\"targetAttrs\":{\"deviceIndexCode\":\"8b78dc690ada448ca7b55425e1915b43\",\"recognitionSign\":1,\"channelName\":\"Camera_01\",\"picServerIndexCode\":\"\",\"cameraIndexCode\":\"4b47720096fa453980491a93cf061a1d\",\"cameraType\":\"COMMON\"}}],\"channelID\":1,\"sendTime\":\"2024-12-28T13:34:59.808+08:00\"},\"srcParentIndex\":\"8b78dc690ada448ca7b55425e1915b43\",\"eventType\":852225,\"srcIndex\":\"8b78dc690ada448ca7b55425e1915b43\",\"srcType\":\"encodeDevice\",\"timeout\":0,\"happenTime\":\"2024-12-28T13:34:59.791+08:00\",\"status\":0}],\"sendTime\":\"2024-12-28T13:34:59.809+08:00\"}"}
{"method":"OnEventNotify","params":"{\"clients\":[\"uavms\",\"uavrpmsweb\"],\"uids\":[\"ljp\",\"test01\",\"tangtang\",\"admin\"],\"ability\":\"event_uav\",\"quids\":[\"ljp\",\"test01\",\"tangtang\",\"admin\"],\"events\":[{\"eventId\":\"B5E79917-61F1-8743-B606-603D49BAFC5A\",\"srcName\":\"Camera_01\",\"data\":{\"dateTime\":\"2024-12-28T13:31:57.186+08:00\",\"dataProcInterval\":\"2\",\"portNo\":8257,\"recvTime\":\"2024-12-28T13:31:57.197+08:00\",\"dataType\":\"uavGps\",\"ipAddress\":\"\",\"targetAttrs\":{\"deviceIndexCode\":\"8b78dc690ada448ca7b55425e1915b43\",\"recognitionSign\":1,\"channelName\":\"Camera_01\",\"picServerIndexCode\":\"\",\"cameraIndexCode\":\"4b47720096fa453980491a93cf061a1d\",\"cameraType\":\"COMMON\"},\"channelName\":\"Camera_01\",\"eventType\":\"uavGpsCollection\",\"gpsCollection\":[{\"UAVStatus\":{\"BatteryRemaining\":76,\"PitchAngle\":0.5729579925537109,\"HorizontalSpeed\":8.01180362701416,\"Latitude\":30.06999588012695,\"RouteId\":\"\",\"RouteStatus\":255,\"Longitude\":106.7027740478516,\"HorizonalView\":5084,\"SensorSize\":28,\"Focus\":535,\"UavMode\":5,\"RollAngle\":-6.875494003295898,\"RelativeHeight\":119.92724609375,\"VerticalView\":2993,\"YawAngle\":49.93000030517578,\"VerticalSpeed\":0.05000000074505806},\"GSStatus\":{\"DataRadioRSSI\":0,\"DivisionEW\":\"E\",\"Latitude\":106.702766418457,\"ImageRSSI\":0,\"GimbalYaw\":5032,\"Longitude\":30.06999015808105,\"GimbalPitchAngle\":-1182},\"targetAttrs\":{\"deviceIndexCode\":\"8b78dc690ada448ca7b55425e1915b43\",\"recognitionSign\":1,\"channelName\":\"Camera_01\",\"picServerIndexCode\":\"\",\"cameraIndexCode\":\"4b47720096fa453980491a93cf061a1d\",\"cameraType\":\"COMMON\"}}],\"channelID\":1,\"sendTime\":\"2024-12-28T13:31:57.199+08:00\"},\"srcParentIndex\":\"8b78dc690ada448ca7b55425e1915b43\",\"eventType\":852225,\"srcIndex\":\"8b78dc690ada448ca7b55425e1915b43\",\"srcType\":\"encodeDevice\",\"timeout\":0,\"happenTime\":\"2024-12-28T13:31:57.186+08:00\",\"status\":0}],\"sendTime\":\"2024-12-28T13:31:57.200+08:00\"}"}
{"method":"OnEventNotify","params":"{\"clients\":[\"uavms\",\"uavrpmsweb\"],\"uids\":[\"ljp\",\"test01\",\"tangtang\",\"admin\"],\"ability\":\"event_uav\",\"quids\":[\"ljp\",\"test01\",\"tangtang\",\"admin\"],\"events\":[{\"eventId\":\"29154F18-8216-7145-A765-DBFCA98027EF\",\"srcName\":\"Camera_01\",\"data\":{\"dateTime\":\"2024-12-28T13:35:34.452+08:00\",\"dataProcInterval\":\"3\",\"portNo\":8257,\"recvTime\":\"2024-12-28T13:35:34.466+08:00\",\"dataType\":\"uavGps\",\"ipAddress\":\"\",\"targetAttrs\":{\"deviceIndexCode\":\"8b78dc690ada448ca7b55425e1915b43\",\"recognitionSign\":1,\"channelName\":\"Camera_01\",\"picServerIndexCode\":\"\",\"cameraIndexCode\":\"4b47720096fa453980491a93cf061a1d\",\"cameraType\":\"COMMON\"},\"channelName\":\"Camera_01\",\"eventType\":\"uavGpsCollection\",\"gpsCollection\":[{\"UAVStatus\":{\"BatteryRemaining\":67,\"PitchAngle\":1.718873023986816,\"HorizontalSpeed\":8.025739669799805,\"Latitude\":30.08306884765625,\"RouteId\":\"\",\"RouteStatus\":255,\"Longitude\":106.7112655639648,\"HorizonalView\":5084,\"SensorSize\":28,\"Focus\":535,\"UavMode\":5,\"RollAngle\":-5.156620025634766,\"RelativeHeight\":120.0253219604492,\"VerticalView\":2993,\"YawAngle\":5.179999828338623,\"VerticalSpeed\":0.009999999776482582},\"GSStatus\":{\"DataRadioRSSI\":0,\"DivisionEW\":\"E\",\"Latitude\":106.7112655639648,\"ImageRSSI\":0,\"GimbalYaw\":536,\"Longitude\":30.08306694030762,\"GimbalPitchAngle\":-1195},\"targetAttrs\":{\"deviceIndexCode\":\"8b78dc690ada448ca7b55425e1915b43\",\"recognitionSign\":1,\"channelName\":\"Camera_01\",\"picServerIndexCode\":\"\",\"cameraIndexCode\":\"4b47720096fa453980491a93cf061a1d\",\"cameraType\":\"COMMON\"}}],\"channelID\":1,\"sendTime\":\"2024-12-28T13:35:34.469+08:00\"},\"srcParentIndex\":\"8b78dc690ada448ca7b55425e1915b43\",\"eventType\":852225,\"srcIndex\":\"8b78dc690ada448ca7b55425e1915b43\",\"srcType\":\"encodeDevice\",\"timeout\":0,\"happenTime\":\"2024-12-28T13:35:34.452+08:00\",\"status\":0}],\"sendTime\":\"2024-12-28T13:35:34.470+08:00\"}"}
{"method":"OnEventNotify","params":"{\"clients\":[\"uavms\",\"uavrpmsweb\"],\"uids\":[\"ljp\",\"test01\",\"tangtang\",\"admin\"],\"ability\":\"event_uav\",\"quids\":[\"ljp\",\"test01\",\"tangtang\",\"admin\"],\"events\":[{\"eventId\":\"49D4C7C5-A5E0-B04C-ABC2-63566288BD7E\",\"srcName\":\"Camera_01\",\"data\":{\"dateTime\":\"2024-12-28T13:37:29.872+08:00\",\"dataProcInterval\":\"1\",\"portNo\":8257,\"recvTime\":\"2024-12-28T13:37:29.883+08:00\",\"dataType\":\"uavGps\",\"ipAddress\":\"\",\"targetAttrs\":{\"deviceIndexCode\":\"8b78dc690ada448ca7b55425e1915b43\",\"recognitionSign\":1,\"channelName\":\"Camera_01\",\"picServerIndexCode\":\"\",\"cameraIndexCode\":\"4b47720096fa453980491a93cf061a1d\",\"cameraType\":\"COMMON\"},\"channelName\":\"Camera_01\",\"eventType\":\"uavGpsCollection\",\"gpsCollection\":[{\"UAVStatus\":{\"BatteryRemaining\":62,\"PitchAngle\":-2.291831016540527,\"HorizontalSpeed\":0.1811079978942871,\"Latitude\":30.08419609069824,\"RouteId\":\"\",\"RouteStatus\":255,\"Longitude\":106.7114410400391,\"HorizonalView\":5084,\"SensorSize\":28,\"Focus\":535,\"UavMode\":9,\"RollAngle\":0.5729579925537109,\"RelativeHeight\":119.9586791992188,\"VerticalView\":2993,\"YawAngle\":211.4600067138672,\"VerticalSpeed\":0},\"GSStatus\":{\"DataRadioRSSI\":0,\"DivisionEW\":\"E\",\"Latitude\":106.7114486694336,\"ImageRSSI\":0,\"GimbalYaw\":-13991,\"Longitude\":30.08419609069824,\"GimbalPitchAngle\":-886},\"targetAttrs\":{\"deviceIndexCode\":\"8b78dc690ada448ca7b55425e1915b43\",\"recognitionSign\":1,\"channelName\":\"Camera_01\",\"picServerIndexCode\":\"\",\"cameraIndexCode\":\"4b47720096fa453980491a93cf061a1d\",\"cameraType\":\"COMMON\"}}],\"channelID\":1,\"sendTime\":\"2024-12-28T13:37:29.884+08:00\"},\"srcParentIndex\":\"8b78dc690ada448ca7b55425e1915b43\",\"eventType\":852225,\"srcIndex\":\"8b78dc690ada448ca7b55425e1915b43\",\"srcType\":\"encodeDevice\",\"timeout\":0,\"happenTime\":\"2024-12-28T13:37:29.872+08:00\",\"status\":0}],\"sendTime\":\"2024-12-28T13:37:29.885+08:00\"}"}
{"method":"OnEventNotify","params":"{\"clients\":[\"uavms\",\"uavrpmsweb\"],\"uids\":[\"ljp\",\"test01\",\"tangtang\",\"admin\"],\"ability\":\"event_uav\",\"quids\":[\"ljp\",\"test01\",\"tangtang\",\"admin\"],\"events\":[{\"eventId\":\"C63BC0B9-B513-114C-9A4D-C3B74885B6DD\",\"srcName\":\"Camera_01\",\"data\":{\"dateTime\":\"2024-12-28T13:34:25.302+08:00\",\"dataProcInterval\":\"3\",\"portNo\":8257,\"recvTime\":\"2024-12-28T13:34:25.315+08:00\",\"dataType\":\"uavGps\",\"ipAddress\":\"\",\"targetAttrs\":{\"deviceIndexCode\":\"8b78dc690ada448ca7b55425e1915b43\",\"recognitionSign\":1,\"channelName\":\"Camera_01\",\"picServerIndexCode\":\"\",\"cameraIndexCode\":\"4b47720096fa453980491a93cf061a1d\",\"cameraType\":\"COMMON\"},\"channelName\":\"Camera_01\",\"eventType\":\"uavGpsCollection\",\"gpsCollection\":[{\"UAVStatus\":{\"BatteryRemaining\":70,\"PitchAngle\":1.718873023986816,\"HorizontalSpeed\":7.998781204223633,\"Latitude\":30.07852935791016,\"RouteId\":\"\",\"RouteStatus\":255,\"Longitude\":106.7095565795898,\"HorizonalView\":5084,\"SensorSize\":28,\"Focus\":535,\"UavMode\":5,\"RollAngle\":-5.729578018188477,\"RelativeHeight\":120.0566711425781,\"VerticalView\":2993,\"YawAngle\":25.60000038146973,\"VerticalSpeed\":-0.07000000029802322},\"GSStatus\":{\"DataRadioRSSI\":0,\"DivisionEW\":\"E\",\"Latitude\":106.7095413208008,\"ImageRSSI\":0,\"GimbalYaw\":2470,\"Longitude\":30.0785083770752,\"GimbalPitchAngle\":-1268},\"targetAttrs\":{\"deviceIndexCode\":\"8b78dc690ada448ca7b55425e1915b43\",\"recognitionSign\":1,\"channelName\":\"Camera_01\",\"picServerIndexCode\":\"\",\"cameraIndexCode\":\"4b47720096fa453980491a93cf061a1d\",\"cameraType\":\"COMMON\"}}],\"channelID\":1,\"sendTime\":\"2024-12-28T13:34:25.318+08:00\"},\"srcParentIndex\":\"8b78dc690ada448ca7b55425e1915b43\",\"eventType\":852225,\"srcIndex\":\"8b78dc690ada448ca7b55425e1915b43\",\"srcType\":\"encodeDevice\",\"timeout\":0,\"happenTime\":\"2024-12-28T13:34:25.302+08:00\",\"status\":0}],\"sendTime\":\"2024-12-28T13:34:25.319+08:00\"}"}
{"method":"OnEventNotify","params":"{\"clients\":[\"uavms\",\"uavrpmsweb\"],\"uids\":[\"ljp\",\"test01\",\"tangtang\",\"admin\"],\"ability\":\"event_uav\",\"quids\":[\"ljp\",\"test01\",\"tangtang\",\"admin\"],\"events\":[{\"eventId\":\"DDBC496C-2D36-DE47-83BB-0D2EB5EB550E\",\"srcName\":\"Camera_01\",\"data\":{\"dateTime\":\"2024-12-28T13:32:11.395+08:00\",\"dataProcInterval\":\"3\",\"portNo\":8257,\"recvTime\":\"2024-12-28T13:32:11.401+08:00\",\"dataType\":\"uavGps\",\"ipAddress\":\"\",\"targetAttrs\":{\"deviceIndexCode\":\"8b78dc690ada448ca7b55425e1915b43\",\"recognitionSign\":1,\"channelName\":\"Camera_01\",\"picServerIndexCode\":\"\",\"cameraIndexCode\":\"4b47720096fa453980491a93cf061a1d\",\"cameraType\":\"COMMON\"},\"channelName\":\"Camera_01\",\"eventType\":\"uavGpsCollection\",\"gpsCollection\":[{\"UAVStatus\":{\"BatteryRemaining\":75,\"PitchAngle\":0,\"HorizontalSpeed\":7.992026805877686,\"Latitude\":30.07084465026855,\"RouteId\":\"\",\"RouteStatus\":255,\"Longitude\":106.703483581543,\"HorizonalView\":5084,\"SensorSize\":28,\"Focus\":535,\"UavMode\":5,\"RollAngle\":-5.729578018188477,\"RelativeHeight\":119.9498825073242,\"VerticalView\":2993,\"YawAngle\":50.06000137329102,\"VerticalSpeed\":0.02999999932944775},\"GSStatus\":{\"DataRadioRSSI\":0,\"DivisionEW\":\"E\",\"Latitude\":106.7034683227539,\"ImageRSSI\":0,\"GimbalYaw\":5013,\"Longitude\":30.07082939147949,\"GimbalPitchAngle\":-1298},\"targetAttrs\":{\"deviceIndexCode\":\"8b78dc690ada448ca7b55425e1915b43\",\"recognitionSign\":1,\"channelName\":\"Camera_01\",\"picServerIndexCode\":\"\",\"cameraIndexCode\":\"4b47720096fa453980491a93cf061a1d\",\"cameraType\":\"COMMON\"}}],\"channelID\":1,\"sendTime\":\"2024-12-28T13:32:11.404+08:00\"},\"srcParentIndex\":\"8b78dc690ada448ca7b55425e1915b43\",\"eventType\":852225,\"srcIndex\":\"8b78dc690ada448ca7b55425e1915b43\",\"srcType\":\"encodeDevice\",\"timeout\":0,\"happenTime\":\"2024-12-28T13:32:11.395+08:00\",\"status\":0}],\"sendTime\":\"2024-12-28T13:32:11.404+08:00\"}"}
{"method":"OnEventNotify","params":"{\"clients\":[\"uavms\",\"uavrpmsweb\"],\"uids\":[\"ljp\",\"test01\",\"tangtang\",\"admin\"],\"ability\":\"event_uav\",\"quids\":[\"ljp\",\"test01\",\"tangtang\",\"admin\"],\"events\":[{\"eventId\":\"1128C15E-55D2-6044-BB4E-E5DE7503C609\",\"srcName\":\"Camera_01\",\"data\":{\"dateTime\":\"2024-12-28T13:31:47.039+08:00\",\"dataProcInterval\":\"10\",\"portNo\":8257,\"recvTime\":\"2024-12-28T13:31:47.050+08:00\",\"dataType\":\"uavGps\",\"ipAddress\":\"\",\"targetAttrs\":{\"deviceIndexCode\":\"8b78dc690ada448ca7b55425e1915b43\",\"recognitionSign\":1,\"channelName\":\"Camera_01\",\"picServerIndexCode\":\"\",\"cameraIndexCode\":\"4b47720096fa453980491a93cf061a1d\",\"cameraType\":\"COMMON\"},\"channelName\":\"Camera_01\",\"eventType\":\"uavGpsCollection\",\"gpsCollection\":[{\"UAVStatus\":{\"BatteryRemaining\":76,\"PitchAngle\":1.718873023986816,\"HorizontalSpeed\":8.040702819824219,\"Latitude\":30.06957817077637,\"RouteId\":\"\",\"RouteStatus\":255,\"Longitude\":106.7021865844727,\"HorizonalView\":5084,\"SensorSize\":28,\"Focus\":535,\"UavMode\":5,\"RollAngle\":-5.156620025634766,\"RelativeHeight\":120.011589050293,\"VerticalView\":2993,\"YawAngle\":50.31999969482422,\"VerticalSpeed\":0.01999999955296516},\"GSStatus\":{\"DataRadioRSSI\":0,\"DivisionEW\":\"E\",\"Latitude\":106.7021789550781,\"ImageRSSI\":0,\"GimbalYaw\":5003,\"Longitude\":30.06957244873047,\"GimbalPitchAngle\":-1240},\"targetAttrs\":{\"deviceIndexCode\":\"8b78dc690ada448ca7b55425e1915b43\",\"recognitionSign\":1,\"channelName\":\"Camera_01\",\"picServerIndexCode\":\"\",\"cameraIndexCode\":\"4b47720096fa453980491a93cf061a1d\",\"cameraType\":\"COMMON\"}}],\"channelID\":1,\"sendTime\":\"2024-12-28T13:31:47.060+08:00\"},\"srcParentIndex\":\"8b78dc690ada448ca7b55425e1915b43\",\"eventType\":852225,\"srcIndex\":\"8b78dc690ada448ca7b55425e1915b43\",\"srcType\":\"encodeDevice\",\"timeout\":0,\"happenTime\":\"2024-12-28T13:31:47.039+08:00\",\"status\":0}],\"sendTime\":\"2024-12-28T13:31:47.061+08:00\"}"}
{"method":"OnEventNotify","params":"{\"clients\":[\"uavms\",\"uavrpmsweb\"],\"uids\":[\"ljp\",\"test01\",\"tangtang\",\"admin\"],\"ability\":\"event_uav\",\"quids\":[\"ljp\",\"test01\",\"tangtang\",\"admin\"],\"events\":[{\"eventId\":\"5B9836BA-E054-834C-8D1B-1252315EEC38\",\"srcName\":\"Camera_01\",\"data\":{\"dateTime\":\"2024-12-28T13:33:38.649+08:00\",\"dataProcInterval\":\"2\",\"portNo\":8257,\"recvTime\":\"2024-12-28T13:33:38.665+08:00\",\"dataType\":\"uavGps\",\"ipAddress\":\"\",\"targetAttrs\":{\"deviceIndexCode\":\"8b78dc690ada448ca7b55425e1915b43\",\"recognitionSign\":1,\"channelName\":\"Camera_01\",\"picServerIndexCode\":\"\",\"cameraIndexCode\":\"4b47720096fa453980491a93cf061a1d\",\"cameraType\":\"COMMON\"},\"channelName\":\"Camera_01\",\"eventType\":\"uavGpsCollection\",\"gpsCollection\":[{\"UAVStatus\":{\"BatteryRemaining\":72,\"PitchAngle\":1.145915985107422,\"HorizontalSpeed\":8.008002281188965,\"Latitude\":30.07595252990723,\"RouteId\":\"\",\"RouteStatus\":255,\"Longitude\":106.7071914672852,\"HorizonalView\":5084,\"SensorSize\":28,\"Focus\":535,\"UavMode\":5,\"RollAngle\":-3.437747001647949,\"RelativeHeight\":120.0398941040039,\"VerticalView\":2993,\"YawAngle\":25.67000007629395,\"VerticalSpeed\":0.03999999910593033},\"GSStatus\":{\"DataRadioRSSI\":0,\"DivisionEW\":\"E\",\"Latitude\":106.7071914672852,\"ImageRSSI\":0,\"GimbalYaw\":2494,\"Longitude\":30.07595634460449,\"GimbalPitchAngle\":-1152},\"targetAttrs\":{\"deviceIndexCode\":\"8b78dc690ada448ca7b55425e1915b43\",\"recognitionSign\":1,\"channelName\":\"Camera_01\",\"picServerIndexCode\":\"\",\"cameraIndexCode\":\"4b47720096fa453980491a93cf061a1d\",\"cameraType\":\"COMMON\"}}],\"channelID\":1,\"sendTime\":\"2024-12-28T13:33:38.667+08:00\"},\"srcParentIndex\":\"8b78dc690ada448ca7b55425e1915b43\",\"eventType\":852225,\"srcIndex\":\"8b78dc690ada448ca7b55425e1915b43\",\"srcType\":\"encodeDevice\",\"timeout\":0,\"happenTime\":\"2024-12-28T13:33:38.649+08:00\",\"status\":0}],\"sendTime\":\"2024-12-28T13:33:38.668+08:00\"}"}
{"method":"OnEventNotify","params":"{\"clients\":[\"uavms\",\"uavrpmsweb\"],\"uids\":[\"ljp\",\"test01\",\"tangtang\",\"admin\"],\"ability\":\"event_uav\",\"quids\":[\"ljp\",\"test01\",\"tangtang\",\"admin\"],\"events\":[{\"eventId\":\"0369317A-26E9-EB42-97D2-BFDD5E8BD8D1\",\"srcName\":\"Camera_01\",\"data\":{\"dateTime\":\"2024-12-28T13:35:05.882+08:00\",\"dataProcInterval\":\"9\",\"portNo\":8257,\"recvTime\":\"2024-12-28T13:35:05.888+08:00\",\"dataType\":\"uavGps\",\"ipAddress\":\"\",\"targetAttrs\":{\"deviceIndexCode\":\"8b78dc690ada448ca7b55425e1915b43\",\"recognitionSign\":1,\"channelName\":\"Camera_01\",\"picServerIndexCode\":\"\",\"cameraIndexCode\":\"4b47720096fa453980491a93cf061a1d\",\"cameraType\":\"COMMON\"},\"channelName\":\"Camera_01\",\"eventType\":\"uavGpsCollection\",\"gpsCollection\":[{\"UAVStatus\":{\"BatteryRemaining\":68,\"PitchAngle\":0.5729579925537109,\"HorizontalSpeed\":8.013113975524902,\"Latitude\":30.08109283447266,\"RouteId\":\"\",\"RouteStatus\":255,\"Longitude\":106.7109375,\"HorizonalView\":5084,\"SensorSize\":28,\"Focus\":535,\"UavMode\":5,\"RollAngle\":-2.291831016540527,\"RelativeHeight\":120.0656356811523,\"VerticalView\":2993,\"YawAngle\":9.0600004196167,\"VerticalSpeed\":0},\"GSStatus\":{\"DataRadioRSSI\":0,\"DivisionEW\":\"E\",\"Latitude\":106.7109298706055,\"ImageRSSI\":0,\"GimbalYaw\":906,\"Longitude\":30.08107948303223,\"GimbalPitchAngle\":-1181},\"targetAttrs\":{\"deviceIndexCode\":\"8b78dc690ada448ca7b55425e1915b43\",\"recognitionSign\":1,\"channelName\":\"Camera_01\",\"picServerIndexCode\":\"\",\"cameraIndexCode\":\"4b47720096fa453980491a93cf061a1d\",\"cameraType\":\"COMMON\"}}],\"channelID\":1,\"sendTime\":\"2024-12-28T13:35:05.897+08:00\"},\"srcParentIndex\":\"8b78dc690ada448ca7b55425e1915b43\",\"eventType\":852225,\"srcIndex\":\"8b78dc690ada448ca7b55425e1915b43\",\"srcType\":\"encodeDevice\",\"timeout\":0,\"happenTime\":\"2024-12-28T13:35:05.882+08:00\",\"status\":0}],\"sendTime\":\"2024-12-28T13:35:05.898+08:00\"}"}
{"method":"OnEventNotify","params":"{\"clients\":[\"uavms\",\"uavrpmsweb\"],\"uids\":[\"ljp\",\"test01\",\"tangtang\",\"admin\"],\"ability\":\"event_uav\",\"quids\":[\"ljp\",\"test01\",\"tangtang\",\"admin\"],\"events\":[{\"eventId\":\"1CFEC469-690F-9B47-9F44-D9BB0A5543A4\",\"srcName\":\"Camera_01\",\"data\":{\"dateTime\":\"2024-12-28T13:30:25.885+08:00\",\"dataProcInterval\":\"7\",\"portNo\":8257,\"recvTime\":\"2024-12-28T13:30:25.894+08:00\",\"dataType\":\"uavGps\",\"ipAddress\":\"\",\"targetAttrs\":{\"deviceIndexCode\":\"8b78dc690ada448ca7b55425e1915b43\",\"recognitionSign\":1,\"channelName\":\"Camera_01\",\"picServerIndexCode\":\"\",\"cameraIndexCode\":\"4b47720096fa453980491a93cf061a1d\",\"cameraType\":\"COMMON\"},\"channelName\":\"Camera_01\",\"eventType\":\"uavGpsCollection\",\"gpsCollection\":[{\"UAVStatus\":{\"BatteryRemaining\":80,\"PitchAngle\":-0.5729579925537109,\"HorizontalSpeed\":8.039956092834473,\"Latitude\":30.0666618347168,\"RouteId\":\"\",\"RouteStatus\":255,\"Longitude\":106.6969451904297,\"HorizonalView\":5084,\"SensorSize\":28,\"Focus\":535,\"UavMode\":5,\"RollAngle\":-4.583662033081055,\"RelativeHeight\":119.9426956176758,\"VerticalView\":2993,\"YawAngle\":50.61999893188477,\"VerticalSpeed\":-0.01999999955296516},\"GSStatus\":{\"DataRadioRSSI\":0,\"DivisionEW\":\"E\",\"Latitude\":106.6969299316406,\"ImageRSSI\":0,\"GimbalYaw\":5019,\"Longitude\":30.06665229797363,\"GimbalPitchAngle\":-1257},\"targetAttrs\":{\"deviceIndexCode\":\"8b78dc690ada448ca7b55425e1915b43\",\"recognitionSign\":1,\"channelName\":\"Camera_01\",\"picServerIndexCode\":\"\",\"cameraIndexCode\":\"4b47720096fa453980491a93cf061a1d\",\"cameraType\":\"COMMON\"}}],\"channelID\":1,\"sendTime\":\"2024-12-28T13:30:25.901+08:00\"},\"srcParentIndex\":\"8b78dc690ada448ca7b55425e1915b43\",\"eventType\":852225,\"srcIndex\":\"8b78dc690ada448ca7b55425e1915b43\",\"srcType\":\"encodeDevice\",\"timeout\":0,\"happenTime\":\"2024-12-28T13:30:25.885+08:00\",\"status\":0}],\"sendTime\":\"2024-12-28T13:30:25.902+08:00\"}"}
